{
  "lawyers": [
    {
      "id": "lawyer-001",
      "name": "Dr. Kovács János Ügyvédi Iroda",
      "specialization": ["munkajog", "munkaügyi perek", "végkielégítés", "felmondás"],
      "location": {
        "city": "Budapest",
        "district": "V. kerület",
        "address": "Kossuth Lajos tér 1-3.",
        "coordinates": [47.5034, 19.0458],
        "postal_code": "1055"
      },
      "contact": {
        "phone": "+36 1 312 4567",
        "email": "info@kovacsugyved.hu",
        "website": "https://kovacsugyved.hu",
        "google_maps_url": "https://maps.google.com/?q=47.5034,19.0458"
      },
      "rating": 4.7,
      "reviews_count": 23,
      "consultation_fee": "15,000 Ft",
      "response_time": "< 24 óra",
      "languages": ["magyar", "angol"],
      "partnership_tier": "premium",
      "experience_years": 12
    },
    {
      "id": "lawyer-002",
      "name": "Dr. Nagy Éva és Társai Ügyvédi Iroda",
      "specialization": ["munkajog", "munkaügyi mediáció", "kollektív szerződések"],
      "location": {
        "city": "Budapest",
        "district": "XIII. kerület",
        "address": "Váci út 76.",
        "coordinates": [47.5174, 19.0501],
        "postal_code": "1133"
      },
      "contact": {
        "phone": "+36 1 298 7654",
        "email": "eva.nagy@nagyugyved.hu",
        "website": "https://nagyugyved.hu",
        "google_maps_url": "https://maps.google.com/?q=47.5174,19.0501"
      },
      "rating": 4.9,
      "reviews_count": 45,
      "consultation_fee": "20,000 Ft",
      "response_time": "< 12 óra",
      "languages": ["magyar", "angol", "német"],
      "partnership_tier": "premium",
      "experience_years": 18
    },
    {
      "id": "lawyer-003",
      "name": "Dr. Szabó Péter Ügyvédi Iroda",
      "specialization": ["fogyasztóvédelem", "reklamáció", "jótállás", "szerződések"],
      "location": {
        "city": "Budapest",
        "district": "VI. kerület",
        "address": "Andrássy út 45.",
        "coordinates": [47.5048, 19.0632],
        "postal_code": "1062"
      },
      "contact": {
        "phone": "+36 1 342 8901",
        "email": "szabo.peter@szabougyved.hu",
        "website": "https://szabougyved.hu",
        "google_maps_url": "https://maps.google.com/?q=47.5048,19.0632"
      },
      "rating": 4.5,
      "reviews_count": 31,
      "consultation_fee": "12,000 Ft",
      "response_time": "< 24 óra",
      "languages": ["magyar"],
      "partnership_tier": "basic",
      "experience_years": 8
    },
    {
      "id": "lawyer-004",
      "name": "Dr. Horváth Anna Ügyvédi Iroda",
      "specialization": ["fogyasztóvédelem", "online vásárlás", "pénzügyi szolgáltatások"],
      "location": {
        "city": "Budapest",
        "district": "II. kerület",
        "address": "Margit körút 23.",
        "coordinates": [47.5167, 19.0315],
        "postal_code": "1024"
      },
      "contact": {
        "phone": "+36 1 456 3210",
        "email": "horvath.anna@horvathugyved.hu",
        "website": "https://horvathugyved.hu",
        "google_maps_url": "https://maps.google.com/?q=47.5167,19.0315"
      },
      "rating": 4.8,
      "reviews_count": 39,
      "consultation_fee": "18,000 Ft",
      "response_time": "< 24 óra",
      "languages": ["magyar", "angol"],
      "partnership_tier": "premium",
      "experience_years": 15
    },
    {
      "id": "lawyer-005",
      "name": "Dr. Tóth Gábor Ügyvédi Iroda",
      "specialization": ["munkajog", "végkielégítés", "jogtalan felmondás"],
      "location": {
        "city": "Budapest",
        "district": "IX. kerület",
        "address": "Üllői út 120.",
        "coordinates": [47.4717, 19.0824],
        "postal_code": "1091"
      },
      "contact": {
        "phone": "+36 1 234 9876",
        "email": "toth.gabor@tothugyved.hu",
        "website": "https://tothugyved.hu",
        "google_maps_url": "https://maps.google.com/?q=47.4717,19.0824"
      },
      "rating": 4.6,
      "reviews_count": 28,
      "consultation_fee": "14,000 Ft",
      "response_time": "< 48 óra",
      "languages": ["magyar"],
      "partnership_tier": "basic",
      "experience_years": 10
    },
    {
      "id": "lawyer-006",
      "name": "Dr. Kiss Zsuzsa és Társai",
      "specialization": ["családjog", "válás", "gyermektartás", "öröklés"],
      "location": {
        "city": "Budapest",
        "district": "I. kerület",
        "address": "Attila út 4.",
        "coordinates": [47.4983, 19.0343],
        "postal_code": "1013"
      },
      "contact": {
        "phone": "+36 1 567 2345",
        "email": "kiss.zsuzsa@kissugyved.hu",
        "website": "https://kissugyved.hu",
        "google_maps_url": "https://maps.google.com/?q=47.4983,19.0343"
      },
      "rating": 4.9,
      "reviews_count": 52,
      "consultation_fee": "22,000 Ft",
      "response_time": "< 12 óra",
      "languages": ["magyar", "angol", "francia"],
      "partnership_tier": "premium",
      "experience_years": 20
    },
    {
      "id": "lawyer-007",
      "name": "Dr. Molnár László Ügyvédi Iroda",
      "specialization": ["fogyasztóvédelem", "szerződésszegés", "kártérítés"],
      "location": {
        "city": "Budapest",
        "district": "VIII. kerület",
        "address": "Rákóczi út 56.",
        "coordinates": [47.4963, 19.0684],
        "postal_code": "1082"
      },
      "contact": {
        "phone": "+36 1 678 4321",
        "email": "molnar.laszlo@molnarugyved.hu",
        "website": "https://molnarugyved.hu",
        "google_maps_url": "https://maps.google.com/?q=47.4963,19.0684"
      },
      "rating": 4.4,
      "reviews_count": 19,
      "consultation_fee": "10,000 Ft",
      "response_time": "< 48 óra",
      "languages": ["magyar"],
      "partnership_tier": "basic",
      "experience_years": 6
    },
    {
      "id": "lawyer-008",
      "name": "Dr. Balogh Krisztina Ügyvédi Iroda",
      "specialization": ["munkajog", "mobbing", "diszkrimináció", "munkahelyi védelem"],
      "location": {
        "city": "Budapest",
        "district": "XII. kerület",
        "address": "Alkotás utca 27.",
        "coordinates": [47.4934, 19.0207],
        "postal_code": "1123"
      },
      "contact": {
        "phone": "+36 1 789 6543",
        "email": "balogh.krisztina@baloghugyved.hu",
        "website": "https://baloghugyved.hu",
        "google_maps_url": "https://maps.google.com/?q=47.4934,19.0207"
      },
      "rating": 4.8,
      "reviews_count": 36,
      "consultation_fee": "17,000 Ft",
      "response_time": "< 24 óra",
      "languages": ["magyar", "angol"],
      "partnership_tier": "premium",
      "experience_years": 14
    },
    {
      "id": "lawyer-009",
      "name": "Dr. Varga Tamás Ügyvédi Iroda",
      "specialization": ["ingatlan", "adásvétel", "bérleti szerződés"],
      "location": {
        "city": "Budapest",
        "district": "VII. kerület",
        "address": "Dohány utca 12.",
        "coordinates": [47.4969, 19.0632],
        "postal_code": "1074"
      },
      "contact": {
        "phone": "+36 1 890 5432",
        "email": "varga.tamas@vargaugyved.hu",
        "website": "https://vargaugyved.hu",
        "google_maps_url": "https://maps.google.com/?q=47.4969,19.0632"
      },
      "rating": 4.3,
      "reviews_count": 24,
      "consultation_fee": "13,000 Ft",
      "response_time": "< 48 óra",
      "languages": ["magyar", "román"],
      "partnership_tier": "basic",
      "experience_years": 9
    },
    {
      "id": "lawyer-010",
      "name": "Dr. Farkas Ildikó Ügyvédi Iroda",
      "specialization": ["fogyasztóvédelem", "utazási szerződések", "biztosítás"],
      "location": {
        "city": "Budapest",
        "district": "III. kerület",
        "address": "Bécsi út 89.",
        "coordinates": [47.5421, 19.0428],
        "postal_code": "1037"
      },
      "contact": {
        "phone": "+36 1 321 7890",
        "email": "farkas.ildiko@farkasugyed.hu",
        "website": "https://farkasugyed.hu",
        "google_maps_url": "https://maps.google.com/?q=47.5421,19.0428"
      },
      "rating": 4.7,
      "reviews_count": 42,
      "consultation_fee": "16,000 Ft",
      "response_time": "< 24 óra",
      "languages": ["magyar", "angol", "spanyol"],
      "partnership_tier": "premium",
      "experience_years": 16
    },
    {
      "id": "lawyer-011",
      "name": "Dr. Lakatos Péter Ügyvédi Iroda",
      "specialization": ["munkajog", "munkabér-követelés", "túlóra elszámolás"],
      "location": {
        "city": "Budapest",
        "district": "XIV. kerület",
        "address": "Örs vezér tere 5.",
        "coordinates": [47.5102, 19.1157],
        "postal_code": "1148"
      },
      "contact": {
        "phone": "+36 1 432 1098",
        "email": "lakatos.peter@lakatosugyved.hu",
        "website": "https://lakatosugyved.hu",
        "google_maps_url": "https://maps.google.com/?q=47.5102,19.1157"
      },
      "rating": 4.5,
      "reviews_count": 27,
      "consultation_fee": "11,000 Ft",
      "response_time": "< 48 óra",
      "languages": ["magyar"],
      "partnership_tier": "basic",
      "experience_years": 7
    },
    {
      "id": "lawyer-012",
      "name": "Dr. Papp Andrea Ügyvédi Iroda",
      "specialization": ["fogyasztóvédelem", "online kereskedelem", "adatbiztonság"],
      "location": {
        "city": "Budapest",
        "district": "XI. kerület",
        "address": "Fehérvári út 34.",
        "coordinates": [47.4692, 19.0507],
        "postal_code": "1116"
      },
      "contact": {
        "phone": "+36 1 543 2109",
        "email": "papp.andrea@pappugyved.hu",
        "website": "https://pappugyved.hu",
        "google_maps_url": "https://maps.google.com/?q=47.4692,19.0507"
      },
      "rating": 4.6,
      "reviews_count": 33,
      "consultation_fee": "14,500 Ft",
      "response_time": "< 24 óra",
      "languages": ["magyar", "angol"],
      "partnership_tier": "basic",
      "experience_years": 11
    },
    {
      "id": "lawyer-013",
      "name": "Dr. Simon György Ügyvédi Iroda",
      "specialization": ["munkajog", "versenytilalom", "üzleti titok"],
      "location": {
        "city": "Budapest",
        "district": "V. kerület",
        "address": "Október 6. utca 8.",
        "coordinates": [47.5012, 19.0532],
        "postal_code": "1051"
      },
      "contact": {
        "phone": "+36 1 654 3210",
        "email": "simon.gyorgy@simonugyved.hu",
        "website": "https://simonugyved.hu",
        "google_maps_url": "https://maps.google.com/?q=47.5012,19.0532"
      },
      "rating": 4.9,
      "reviews_count": 48,
      "consultation_fee": "25,000 Ft",
      "response_time": "< 12 óra",
      "languages": ["magyar", "angol", "német", "olasz"],
      "partnership_tier": "premium",
      "experience_years": 22
    },
    {
      "id": "lawyer-014",
      "name": "Dr. Németh Judit Ügyvédi Iroda",
      "specialization": ["családjog", "gyermekelhelyezés", "kapcsolattartás"],
      "location": {
        "city": "Budapest",
        "district": "IV. kerület",
        "address": "Váci út 196.",
        "coordinates": [47.5633, 19.0791],
        "postal_code": "1047"
      },
      "contact": {
        "phone": "+36 1 765 4321",
        "email": "nemeth.judit@nemethugyved.hu",
        "website": "https://nemethugyved.hu",
        "google_maps_url": "https://maps.google.com/?q=47.5633,19.0791"
      },
      "rating": 4.8,
      "reviews_count": 41,
      "consultation_fee": "19,000 Ft",
      "response_time": "< 24 óra",
      "languages": ["magyar", "angol"],
      "partnership_tier": "premium",
      "experience_years": 17
    },
    {
      "id": "lawyer-015",
      "name": "Dr. Oláh Ferenc Ügyvédi Iroda",
      "specialization": ["fogyasztóvédelem", "bank és pénzügy", "hitelszerződések"],
      "location": {
        "city": "Budapest",
        "district": "V. kerület",
        "address": "Deák Ferenc tér 1.",
        "coordinates": [47.4978, 19.0543],
        "postal_code": "1052"
      },
      "contact": {
        "phone": "+36 1 876 5432",
        "email": "olah.ferenc@olahugyved.hu",
        "website": "https://olahugyved.hu",
        "google_maps_url": "https://maps.google.com/?q=47.4978,19.0543"
      },
      "rating": 4.4,
      "reviews_count": 21,
      "consultation_fee": "12,500 Ft",
      "response_time": "< 48 óra",
      "languages": ["magyar"],
      "partnership_tier": "basic",
      "experience_years": 8
    },
    {
      "id": "lawyer-016",
      "name": "Dr. Rácz Éva Ügyvédi Iroda",
      "specialization": ["munkajog", "munkaszerződés-módosítás", "áthelyezés"],
      "location": {
        "city": "Budapest",
        "district": "X. kerület",
        "address": "Kőbányai út 23.",
        "coordinates": [47.4817, 19.1004],
        "postal_code": "1108"
      },
      "contact": {
        "phone": "+36 1 987 6543",
        "email": "racz.eva@raczugyved.hu",
        "website": "https://raczugyved.hu",
        "google_maps_url": "https://maps.google.com/?q=47.4817,19.1004"
      },
      "rating": 4.7,
      "reviews_count": 35,
      "consultation_fee": "15,500 Ft",
      "response_time": "< 24 óra",
      "languages": ["magyar", "szlovák"],
      "partnership_tier": "basic",
      "experience_years": 13
    },
    {
      "id": "lawyer-017",
      "name": "Dr. Fekete Balázs Ügyvédi Iroda",
      "specialization": ["fogyasztóvédelem", "telekommunikáció", "internet szolgáltatás"],
      "location": {
        "city": "Budapest",
        "district": "XIII. kerület",
        "address": "Szent István körút 14.",
        "coordinates": [47.5158, 19.0621],
        "postal_code": "1137"
      },
      "contact": {
        "phone": "+36 1 098 7654",
        "email": "fekete.balazs@feketeugyved.hu",
        "website": "https://feketeugyved.hu",
        "google_maps_url": "https://maps.google.com/?q=47.5158,19.0621"
      },
      "rating": 4.6,
      "reviews_count": 29,
      "consultation_fee": "13,500 Ft",
      "response_time": "< 24 óra",
      "languages": ["magyar", "angol"],
      "partnership_tier": "basic",
      "experience_years": 9
    },
    {
      "id": "lawyer-018",
      "name": "Dr. Mészáros Katalin Ügyvédi Iroda",
      "specialization": ["munkajog", "tisztességtelen felmondás", "munkajogi perek"],
      "location": {
        "city": "Budapest",
        "district": "II. kerület",
        "address": "Fillér utca 72.",
        "coordinates": [47.5278, 19.0255],
        "postal_code": "1022"
      },
      "contact": {
        "phone": "+36 1 209 8765",
        "email": "meszaros.katalin@meszarosugyved.hu",
        "website": "https://meszarosugyved.hu",
        "google_maps_url": "https://maps.google.com/?q=47.5278,19.0255"
      },
      "rating": 4.9,
      "reviews_count": 54,
      "consultation_fee": "21,000 Ft",
      "response_time": "< 12 óra",
      "languages": ["magyar", "angol", "német"],
      "partnership_tier": "premium",
      "experience_years": 19
    }
  ]
}
